[
  { "id": "NLRTM", "name": "Rotterdam", "country": "Netherlands", "lat": 51.9225, "lng": 4.4792, "isBosphorus": false, "isDardanelles": false, "isSuez": false },
  { "id": "DEHAM", "name": "Hamburg", "country": "Germany", "lat": 53.5753, "lng": 9.9928, "isBosphorus": false, "isDardanelles": false, "isSuez": false },
  { "id": "GBFXT", "name": "Felixstowe", "country": "United Kingdom", "lat": 51.9620, "lng": 1.3517, "isBosphorus": false, "isDardanelles": false, "isSuez": false },
  { "id": "BEANR", "name": "Antwerp", "country": "Belgium", "lat": 51.2194, "lng": 4.4025, "isBosphorus": false, "isDardanelles": false, "isSuez": false },
  { "id": "FRMRS", "name": "Marseille", "country": "France", "lat": 43.2965, "lng": 5.3698, "isBosphorus": false, "isDardanelles": false, "isSuez": false },
  { "id": "ITGOA", "name": "Genoa", "country": "Italy", "lat": 44.4056, "lng": 8.9463, "isBosphorus": false, "isDardanelles": false, "isSuez": false },
  { "id": "ESBCN", "name": "Barcelona", "country": "Spain", "lat": 41.3851, "lng": 2.1734, "isBosphorus": false, "isDardanelles": false, "isSuez": false },
  { "id": "ESALG", "name": "Algeciras", "country": "Spain", "lat": 36.1408, "lng": -5.4534, "isBosphorus": false, "isDardanelles": false, "isSuez": false },
  { "id": "GRATH", "name": "Piraeus", "country": "Greece", "lat": 37.9475, "lng": 23.6424, "isBosphorus": false, "isDardanelles": false, "isSuez": false },
  { "id": "TRIST", "name": "Istanbul", "country": "Turkey", "lat": 41.0082, "lng": 28.9784, "isBosphorus": true, "isDardanelles": false, "isSuez": false },
  { "id": "TRCSK", "name": "Canakkale (Dardanelles)", "country": "Turkey", "lat": 40.1480, "lng": 26.4083, "isBosphorus": false, "isDardanelles": true, "isSuez": false },
  { "id": "EGPSD", "name": "Port Said (Suez North)", "country": "Egypt", "lat": 31.2565, "lng": 32.2841, "isBosphorus": false, "isDardanelles": false, "isSuez": true },
  { "id": "EGSUZ", "name": "Suez (Suez South)", "country": "Egypt", "lat": 29.9668, "lng": 32.5498, "isBosphorus": false, "isDardanelles": false, "isSuez": true },
  { "id": "AEJEA", "name": "Jebel Ali", "country": "UAE", "lat": 24.9964, "lng": 55.0564, "isBosphorus": false, "isDardanelles": false, "isSuez": false },
  { "id": "SAJED", "name": "Jeddah", "country": "Saudi Arabia", "lat": 21.4858, "lng": 39.1925, "isBosphorus": false, "isDardanelles": false, "isSuez": false },
  { "id": "SGSIN", "name": "Singapore", "country": "Singapore", "lat": 1.3521, "lng": 103.8198, "isBosphorus": false, "isDardanelles": false, "isSuez": false },
  { "id": "CNSHA", "name": "Shanghai", "country": "China", "lat": 31.2304, "lng": 121.4737, "isBosphorus": false, "isDardanelles": false, "isSuez": false },
  { "id": "CNNGB", "name": "Ningbo", "country": "China", "lat": 29.8683, "lng": 121.5440, "isBosphorus": false, "isDardanelles": false, "isSuez": false },
  { "id": "CNSZX", "name": "Shenzhen", "country": "China", "lat": 22.5431, "lng": 114.0579, "isBosphorus": false, "isDardanelles": false, "isSuez": false },
  { "id": "JPTYO", "name": "Tokyo", "country": "Japan", "lat": 35.6762, "lng": 139.6503, "isBosphorus": false, "isDardanelles": false, "isSuez": false },
  { "id": "JPYOK", "name": "Yokohama", "country": "Japan", "lat": 35.4438, "lng": 139.6380, "isBosphorus": false, "isDardanelles": false, "isSuez": false },
  { "id": "KRINC", "name": "Incheon", "country": "South Korea", "lat": 37.4563, "lng": 126.7052, "isBosphorus": false, "isDardanelles": false, "isSuez": false },
  { "id": "KRPUS", "name": "Busan", "country": "South Korea", "lat": 35.1796, "lng": 129.0756, "isBosphorus": false, "isDardanelles": false, "isSuez": false },
  { "id": "USSAV", "name": "Savannah", "country": "USA", "lat": 31.9960, "lng": -81.0937, "isBosphorus": false, "isDardanelles": false, "isSuez": false },
  { "id": "USNYC", "name": "New York", "country": "USA", "lat": 40.7128, "lng": -74.0060, "isBosphorus": false, "isDardanelles": false, "isSuez": false },
  { "id": "USMOB", "name": "Mobile", "country": "USA", "lat": 30.6954, "lng": -88.0399, "isBosphorus": false, "isDardanelles": false, "isSuez": false },
  { "id": "USHOU", "name": "Houston", "country": "USA", "lat": 29.7604, "lng": -95.3698, "isBosphorus": false, "isDardanelles": false, "isSuez": false },
  { "id": "USBAL", "name": "Baltimore", "country": "USA", "lat": 39.2904, "lng": -76.6122, "isBosphorus": false, "isDardanelles": false, "isSuez": false },
  { "id": "BRSSZ", "name": "Santos", "country": "Brazil", "lat": -23.9535, "lng": -46.3328, "isBosphorus": false, "isDardanelles": false, "isSuez": false },
  { "id": "ARBUE", "name": "Buenos Aires", "country": "Argentina", "lat": -34.6118, "lng": -58.3960, "isBosphorus": false, "isDardanelles": false, "isSuez": false },
  { "id": "ZADHV", "name": "Durban", "country": "South Africa", "lat": -29.8587, "lng": 31.0218, "isBosphorus": false, "isDardanelles": false, "isSuez": false },
  { "id": "NGLAG", "name": "Lagos (Apapa)", "country": "Nigeria", "lat": 6.4541, "lng": 3.3947, "isBosphorus": false, "isDardanelles": false, "isSuez": false },
  { "id": "EGALY", "name": "Alexandria", "country": "Egypt", "lat": 31.2001, "lng": 29.9187, "isBosphorus": false, "isDardanelles": false, "isSuez": false },
  { "id": "UAODS", "name": "Odessa", "country": "Ukraine", "lat": 46.4825, "lng": 30.7233, "isBosphorus": false, "isDardanelles": false, "isSuez": false },
  { "id": "RUNOVOR", "name": "Novorossiysk", "country": "Russia", "lat": 44.7238, "lng": 37.7688, "isBosphorus": false, "isDardanelles": false, "isSuez": false },
  { "id": "TRTUZ", "name": "Tuzla", "country": "Turkey", "lat": 40.8265, "lng": 29.3058, "isBosphorus": false, "isDardanelles": false, "isSuez": false },
  { "id": "TRISK", "name": "Iskenderun", "country": "Turkey", "lat": 36.5869, "lng": 36.1659, "isBosphorus": false, "isDardanelles": false, "isSuez": false },
  { "id": "GRPIR", "name": "Thessaloniki", "country": "Greece", "lat": 40.6401, "lng": 22.9444, "isBosphorus": false, "isDardanelles": false, "isSuez": false },
  { "id": "HRSPU", "name": "Split", "country": "Croatia", "lat": 43.5081, "lng": 16.4402, "isBosphorus": false, "isDardanelles": false, "isSuez": false },
  { "id": "MTMLA", "name": "Valletta", "country": "Malta", "lat": 35.8997, "lng": 14.5147, "isBosphorus": false, "isDardanelles": false, "isSuez": false },
  { "id": "BGSOF", "name": "Varna", "country": "Bulgaria", "lat": 43.2141, "lng": 27.9147, "isBosphorus": false, "isDardanelles": false, "isSuez": false },
  { "id": "ROBRA", "name": "Constanta", "country": "Romania", "lat": 44.1598, "lng": 28.6348, "isBosphorus": false, "isDardanelles": false, "isSuez": false },
  { "id": "PKKAR", "name": "Karachi", "country": "Pakistan", "lat": 24.8607, "lng": 67.0011, "isBosphorus": false, "isDardanelles": false, "isSuez": false },
  { "id": "INMUND", "name": "Mumbai", "country": "India", "lat": 19.0760, "lng": 72.8777, "isBosphorus": false, "isDardanelles": false, "isSuez": false },
  { "id": "INKND", "name": "Kandla", "country": "India", "lat": 23.0333, "lng": 70.2167, "isBosphorus": false, "isDardanelles": false, "isSuez": false },
  { "id": "AUCNS", "name": "Brisbane", "country": "Australia", "lat": -27.4698, "lng": 153.0251, "isBosphorus": false, "isDardanelles": false, "isSuez": false },
  { "id": "AUSYD", "name": "Sydney", "country": "Australia", "lat": -33.8688, "lng": 151.2093, "isBosphorus": false, "isDardanelles": false, "isSuez": false },
  { "id": "CAMTR", "name": "Montreal", "country": "Canada", "lat": 45.5017, "lng": -73.5673, "isBosphorus": false, "isDardanelles": false, "isSuez": false },
  { "id": "CAMID", "name": "Vancouver", "country": "Canada", "lat": 49.2827, "lng": -123.1207, "isBosphorus": false, "isDardanelles": false, "isSuez": false },
  { "id": "MXVER", "name": "Veracruz", "country": "Mexico", "lat": 19.1738, "lng": -96.1342, "isBosphorus": false, "isDardanelles": false, "isSuez": false },
  { "id": "CLVAP", "name": "Valparaiso", "country": "Chile", "lat": -33.0472, "lng": -71.6127, "isBosphorus": false, "isDardanelles": false, "isSuez": false },
  { "id": "PHLIM", "name": "Manila", "country": "Philippines", "lat": 14.5995, "lng": 120.9842, "isBosphorus": false, "isDardanelles": false, "isSuez": false },
  { "id": "IDTPP", "name": "Tanjung Priok (Jakarta)", "country": "Indonesia", "lat": -6.1044, "lng": 106.8760, "isBosphorus": false, "isDardanelles": false, "isSuez": false },
  { "id": "MYKUA", "name": "Port Klang", "country": "Malaysia", "lat": 3.0000, "lng": 101.4000, "isBosphorus": false, "isDardanelles": false, "isSuez": false },
  { "id": "THBKK", "name": "Bangkok (Laem Chabang)", "country": "Thailand", "lat": 13.0827, "lng": 100.8850, "isBosphorus": false, "isDardanelles": false, "isSuez": false },
  { "id": "VNHPH", "name": "Haiphong", "country": "Vietnam", "lat": 20.8449, "lng": 106.6881, "isBosphorus": false, "isDardanelles": false, "isSuez": false },
  { "id": "IRILM", "name": "Bandar Abbas", "country": "Iran", "lat": 27.1832, "lng": 56.2666, "isBosphorus": false, "isDardanelles": false, "isSuez": false },
  { "id": "IQUMQ", "name": "Umm Qasr", "country": "Iraq", "lat": 30.0337, "lng": 47.9262, "isBosphorus": false, "isDardanelles": false, "isSuez": false },
  { "id": "KWKWI", "name": "Kuwait City", "country": "Kuwait", "lat": 29.3759, "lng": 47.9774, "isBosphorus": false, "isDardanelles": false, "isSuez": false },
  { "id": "QADOH", "name": "Doha (Hamad)", "country": "Qatar", "lat": 25.2867, "lng": 51.5333, "isBosphorus": false, "isDardanelles": false, "isSuez": false },
  { "id": "LVRIX", "name": "Riga", "country": "Latvia", "lat": 56.9460, "lng": 24.1059, "isBosphorus": false, "isDardanelles": false, "isSuez": false },
  { "id": "PLGDN", "name": "Gdansk", "country": "Poland", "lat": 54.3520, "lng": 18.6466, "isBosphorus": false, "isDardanelles": false, "isSuez": false },
  { "id": "FIHEL", "name": "Helsinki", "country": "Finland", "lat": 60.1699, "lng": 24.9384, "isBosphorus": false, "isDardanelles": false, "isSuez": false },
  { "id": "SEGOT", "name": "Gothenburg", "country": "Sweden", "lat": 57.7089, "lng": 11.9746, "isBosphorus": false, "isDardanelles": false, "isSuez": false },
  { "id": "NOOSL", "name": "Oslo", "country": "Norway", "lat": 59.9139, "lng": 10.7522, "isBosphorus": false, "isDardanelles": false, "isSuez": false }
]
